[{"code":"ABM","lat":"-10.9438","lon":"142.453","name":"Bamaga Airport","city":"Seisia","state":"Queensland","country":"Australia","woeid":"12510598","tz":"Australia/Brisbane","type":"Airports"},{"code":"GRZ","lat":"46.9902","lon":"15.4389","name":"Graz Airport","city":"Feldkirchen","state":"Styria","country":"Austria","woeid":"22014356","tz":"Europe/Vienna","type":"Airports"},{"code":"GYD","lat":"40.3781","lon":"49.8028","name":"Azerbaijan","city":"Baku","state":"Baki","country":"Azerbaijan","woeid":"23424741","tz":"Asia/Baku","type":"Airports"},{"code":"BJM","lat":"-3.3317","lon":"29.3208","name":"Bujumbura Airport","city":"Bujumbura","state":"Bujumbura","country":"Burundi","woeid":"12511564","tz":"Africa/Bujumbura","type":"Airports"},{"code":"ANR","lat":"51.1896","lon":"4.45236","name":"Deurne Airport","city":"Antwerp","state":"Antwerp","country":"Belgium","woeid":"22028955","tz":"Europe/Brussels","type":"Airports"},{"code":"COO","lat":"6.3542","lon":"2.3856","name":"Cotonou Cadjehon Airport","city":"Cotonou","state":"Atlantique","country":"Benin","woeid":"12510939","tz":"Africa/Porto-Novo","type":"Airports"},{"code":"BOY","lat":"11.1636","lon":"-4.3264","name":"Bobo Dioulasso Airport","city":"Bobo-Dioulasso","state":"Houet","country":"Burkina Faso","woeid":"12522554","tz":"Africa/Ouagadougou","type":"Airports"},{"code":"BZL","lat":"22.6667","lon":"90.3417","name":"","city":"Barisal","state":"Barisal","country":"Bangladesh","woeid":"1914997","tz":"Asia/Dhaka","type":"Airports"},{"code":"BOJ","lat":"42.5667","lon":"27.5","name":"Bourgas Airport","city":"Burgas","state":"Burgas","country":"Bulgaria","woeid":"12523782","tz":"Europe/Sofia","type":"Airports"},{"code":"BNX","lat":"44.9403","lon":"17.2992","name":"Banja Luka Airport","city":"Banja Luka","state":"Republika Srpska","country":"Bosnia and Herzegovina","woeid":"12510897","tz":"Europe/Sarajevo","type":"Airports"},{"code":"MHP","lat":"53.8713","lon":"27.5352","name":"Minsk International 1","city":"Minsk","state":"Minskaya Voblasts'","country":"Belarus","woeid":"12510966","tz":"Europe/Minsk","type":"Airports"},{"code":"BZE","lat":"17.5386","lon":"-88.3042","name":"Philip S W Goldson International Airport","city":"Hattieville","state":"Belize","country":"Belize","woeid":"12510896","tz":"America/Belize","type":"Airports"},{"code":"CBB","lat":"-17.4161","lon":"-66.1744","name":"Jorge Wilsterman Airport","city":"Cochabamba","state":"Cochabamba","country":"Bolivia","woeid":"12510908","tz":"America/La_Paz","type":"Airports"},{"code":"AAX","lat":"-19.5603","lon":"-46.9653","name":"Romeu Zuma Airport","city":"AraxÃ¡","state":"Minas Gerais","country":"Brazil","woeid":"12511034","tz":"America/Sao_Paulo","type":"Airports"},{"code":"BWN","lat":"4.9458","lon":"114.924","name":"Brunei International Airport","city":"Bandar Seri Begawan","state":"Brunei and Muara","country":"Brunei","woeid":"12511563","tz":"Asia/Brunei","type":"Airports"},{"code":"PBH","lat":"27.4033","lon":"89.4292","name":"Paro Airport","city":"Paro","state":"Paro","country":"Bhutan","woeid":"12511377","tz":"Asia/Thimphu","type":"Airports"},{"code":"BBK","lat":"-17.8333","lon":"25.1667","name":"Kasane Airport","city":"Kasane","state":"Chobe","country":"Botswana","woeid":"12523069","tz":"Africa/Gaborone","type":"Airports"},{"code":"BGF","lat":"4.3961","lon":"18.5203","name":"Bangui M Poko Airport","city":"Bangui","state":"Bangui","country":"Central African Republic","woeid":"12512446","tz":"Africa/Bangui","type":"Airports"},{"code":"AKV","lat":"60.8142","lon":"-78.1509","name":"Akulivik Airport","city":"Chisasibi","state":"Quebec","country":"Canada","woeid":"12524039","tz":"America/Iqaluit","type":"Airports"},{"code":"ACH","lat":"47.4887","lon":"9.55376","name":"Altenrhein Airport","city":"Altenrhein","state":"Canton of St. Gallen","country":"Switzerland","woeid":"23344872","tz":"Europe/Zurich","type":"Airports"},{"code":"ANF","lat":"-23.44","lon":"-70.4419","name":"Cerro Moreno International Airport","city":"Antofagasta","state":"Antofagasta","country":"Chile","woeid":"12512312","tz":"America/Santiago","type":"Airports"},{"code":"AAT","lat":"47.7406","lon":"88.0845","name":"Altay Airport","city":"Altay","state":"Xinjiang","country":"China","woeid":"12511977","tz":"Asia/Urumqi","type":"Airports"},{"code":"ABJ","lat":"5.2556","lon":"-3.9292","name":"Abidjan Port Bouet Airport","city":"Abidjan","state":"Abidjan","country":"Ivory Coast","woeid":"12513870","tz":"Africa/Abidjan","type":"Airports"},{"code":"DLA","lat":"4.0133","lon":"9.7097","name":"Douala Airport","city":"Douala","state":"Littoral","country":"Cameroon","woeid":"12512348","tz":"Africa/Douala","type":"Airports"},{"code":"ADZ","lat":"12.5811","lon":"-81.7092","name":"Sesquicentenario Airport","city":"San AndrÃ©s","state":"San Andres y Providencia","country":"Colombia","woeid":"12512417","tz":"America/Bogota","type":"Airports"},{"code":"BCL","lat":"10.7856","lon":"-83.5966","name":"Barra Colorado Airport","city":"Colorado","state":"Limon","country":"Costa Rica","woeid":"12524312","tz":"America/Costa_Rica","type":"Airports"},{"code":"BCA","lat":"20.3644","lon":"-74.5064","name":"Baracoa Airport","city":"Baracoa","state":"Guantanamo","country":"Cuba","woeid":"12512452","tz":"America/Havana","type":"Airports"},{"code":"ECN","lat":"35.1597","lon":"33.4897","name":"Ercan Airport","city":"Nicosia","state":"Cyprus, TRNC","country":"Cyprus","woeid":"12512497","tz":"Asia/Nicosia","type":"Airports"},{"code":"BRQ","lat":"49.1535","lon":"16.6908","name":"Turany Airport","city":"Brno","state":"JihomoravskÃ½","country":"Czech Republic","woeid":"12512574","tz":"Europe/Prague","type":"Airports"},{"code":"AOC","lat":"50.9794","lon":"12.5111","name":"Altenburg Nobitz","city":"Altenburg","state":"Thuringia","country":"Germany","woeid":"12597007","tz":"Europe/Berlin","type":"Airports"},{"code":"JIB","lat":"11.5467","lon":"43.1592","name":"Djibouti Ambouli Airport","city":"Djibouti City","state":"Djibouti","country":"Djibouti","woeid":"12512608","tz":"Africa/Djibouti","type":"Airports"},{"code":"AAL","lat":"57.0952","lon":"9.85606","name":"Aalborg Airport","city":"Norresundby","state":"Nordjylland","country":"Denmark","woeid":"12512587","tz":"Europe/Copenhagen","type":"Airports"},{"code":"AZS","lat":"19.2099","lon":"-69.3279","name":"Samana El Catey International Airport","city":"Samana","state":"Samana","country":"Dominican Republic","woeid":"76414","tz":"America/Santo_Domingo","type":"Airports"},{"code":"AAE","lat":"36.8236","lon":"7.8103","name":"El Mellah Airport","city":"El Tarf","state":"Annaba","country":"Algeria","woeid":"12510325","tz":"Africa/Algiers","type":"Airports"},{"code":"CUE","lat":"-2.8867","lon":"-78.9833","name":"Mariscal Lamar Airport","city":"Cuenca","state":"Azuay","country":"Ecuador","woeid":"12512642","tz":"America/Guayaquil","type":"Airports"},{"code":"ABS","lat":"22.3722","lon":"31.6125","name":"Abu Simbel Airport","city":"Abu Simbel","state":"Aswan","country":"Egypt","woeid":"12512656","tz":"Africa/Cairo","type":"Airports"},{"code":"ASM","lat":"15.2906","lon":"38.9103","name":"Yohannes Iv International Airport","city":"Asmara","state":"Maekel","country":"Eritrea","woeid":"12512750","tz":"Africa/Asmara","type":"Airports"},{"code":"ABC","lat":"38.9833","lon":"-1.85","name":"Los Llanos","city":"Albacete","state":"Castilla-la Mancha","country":"Spain","woeid":"20081243","tz":"Europe/Madrid","type":"Airports"},{"code":"KDL","lat":"59.0013","lon":"22.8181","name":"Kardla East Airport","city":"Kerdlya","state":"Hiiumaa","country":"Estonia","woeid":"12512735","tz":"Europe/Tallinn","type":"Airports"},{"code":"ABK","lat":"6.73719","lon":"44.2797","name":"Kabri Dar","city":"Kabri Dar","state":"Ogaden","country":"Ethiopia","woeid":"1317686","tz":"Africa/Addis_Ababa","type":"Airports"},{"code":"ENF","lat":"68.3606","lon":"23.4205","name":"Enontekio Airport","city":"LeppÃ¤jÃ¤rvi","state":"Lapland","country":"Finland","woeid":"12512763","tz":"Europe/Helsinki","type":"Airports"},{"code":"ICI","lat":"-17.7518","lon":"-179.307","name":"Cicia Airport","city":"Cicia","state":"Eastern","country":"Fiji","woeid":"12512810","tz":"Pacific/Fiji","type":"Airports"},{"code":"MPN","lat":"-51.8222","lon":"-58.4417","name":"Mount Pleasant Airport","city":"Mount Pleasant","state":"East Falkland","country":"Falkland Islands","woeid":"12512813","tz":"Atlantic/Stanley","type":"Airports"},{"code":"AGF","lat":"44.1736","lon":"0.59223","name":"La Garenne Airport","city":"Laplume","state":"Aquitaine","country":"France","woeid":"12512903","tz":"Europe/Paris","type":"Airports"},{"code":"CAY","lat":"4.93333","lon":"-52.3333","name":"Rochambeau","city":"Cayenne","state":"Cayenne","country":"French Guiana","woeid":"379817","tz":"America/Cayenne","type":"Airports"},{"code":"GAX","lat":"-2.7639","lon":"9.98581","name":"Gamba","city":"Gamba","state":"","country":"Gabon","woeid":"23424822","tz":"Africa/Libreville","type":"Airports"},{"code":"ABZ","lat":"57.2004","lon":"-2.20373","name":"Aberdeen Dyce International Airport","city":"Aberdeen","state":"Scotland","country":"United Kingdom","woeid":"22450858","tz":"Europe/London","type":"Airports"},{"code":"BUS","lat":"50.0662","lon":"2.96519","name":"Batumi","city":"Batumi","state":"Ajaria","country":"Georgia","woeid":"1962543","tz":"Asia/Tbilisi","type":"Airports"},{"code":"ACC","lat":"5.5964","lon":"-0.17","name":"Kotoka International Airport","city":"Accra","state":"Greater Accra","country":"Ghana","woeid":"12513022","tz":"Africa/Accra","type":"Airports"},{"code":"CKY","lat":"9.5764","lon":"-13.6108","name":"Conakry Airport","city":"Conakry","state":"Conakry","country":"Guinea","woeid":"12513342","tz":"Africa/Conakry","type":"Airports"},{"code":"BJL","lat":"13.3372","lon":"-16.6544","name":"Yundum International Airport","city":"Yundum","state":"Western","country":"Gambia","woeid":"12512990","tz":"Africa/Banjul","type":"Airports"},{"code":"BSG","lat":"1.9046","lon":"9.8032","name":"Bata Airport","city":"Bata","state":"Litoral","country":"Equatorial Guinea","woeid":"12512729","tz":"Africa/Malabo","type":"Airports"},{"code":"AOK","lat":"35.4239","lon":"27.1472","name":"Karpathos Airport","city":"Karpathos","state":"Notio Aigaio","country":"Greece","woeid":"12513293","tz":"Europe/Athens","type":"Airports"},{"code":"AGM","lat":"65.6667","lon":"-37.6667","name":"Angmagssalik Airport","city":"Angmassalik","state":"Ostgronland","country":"Greenland","woeid":"12523853","tz":"America/Godthab","type":"Airports"},{"code":"FRS","lat":"16.9139","lon":"-89.8664","name":"Santa Elena Airport","city":"Flores","state":"Peten","country":"Guatemala","woeid":"12513341","tz":"America/Guatemala","type":"Airports"},{"code":"GEO","lat":"6.5003","lon":"-58.2542","name":"Timehri International Airport","city":"Hyde Park","state":"Demerara-Mahaica","country":"Guyana","woeid":"12513350","tz":"America/Guyana","type":"Airports"},{"code":"AHS","lat":"15.4534","lon":"-84.4041","name":"Ahuas Airport","city":"Auas","state":"Gracias a Dios","country":"Honduras","woeid":"12524351","tz":"America/Tegucigalpa","type":"Airports"},{"code":"BWK","lat":"43.2619","lon":"16.655","name":"Bol","city":"Bol","state":"Splitsko-Dalmatinska","country":"Croatia","woeid":"15022368","tz":"Europe/Belgrade","type":"Airports"},{"code":"CAP","lat":"19.7328","lon":"-72.195","name":"Cap Haitien Airport","city":"Cap-HaÃ¯tien","state":"Nord","country":"Haiti","woeid":"12513352","tz":"America/Port-au-Prince","type":"Airports"},{"code":"BUD","lat":"47.4453","lon":"19.2195","name":"Ferihegy Airport","city":"Budapest","state":"Budapest","country":"Hungary","woeid":"12513389","tz":"Europe/Budapest","type":"Airports"},{"code":"AMI","lat":"-8.562","lon":"116.098","name":"Selaparang","city":"Mataram","state":"Nusa Tenggara Barat","country":"Indonesia","woeid":"12513504","tz":"Asia/Makassar","type":"Airports"},{"code":"AGR","lat":"27.1632","lon":"77.9788","name":"Agra Airport","city":"Agra","state":"Uttar Pradesh","country":"India","woeid":"12513528","tz":"Asia/Kolkata","type":"Airports"},{"code":"CFN","lat":"55.0416","lon":"-8.3436","name":"Carrickfin Airport","city":"Mullaghduff","state":"","country":"Ireland","woeid":"12512717","tz":"Europe/Dublin","type":"Airports"},{"code":"ABD","lat":"30.3374","lon":"48.3032","name":"","city":"Abadan","state":"Khuzestan","country":"Iran","woeid":"2254271","tz":"Asia/Tehran","type":"Airports"},{"code":"BGW","lat":"33.3328","lon":"44.3639","name":"Al Muthana Airport","city":"Baghdad","state":"Baghdad","country":"Iraq","woeid":"12513890","tz":"Asia/Baghdad","type":"Other Airport"},{"code":"AEY","lat":"65.6561","lon":"-18.0923","name":"Akureyri Airport","city":"Akureyri","state":"Akureyri","country":"Iceland","woeid":"12513442","tz":"Atlantic/Reykjavik","type":"Airports"},{"code":"ETH","lat":"29.5541","lon":"34.9554","name":"J Hozman Airport","city":"Elat","state":"HaDarom","country":"Israel","woeid":"12513782","tz":"Asia/Jerusalem","type":"Airports"},{"code":"AHO","lat":"40.6319","lon":"8.29279","name":"Alghero Airport","city":"Alghero","state":"Sardinia","country":"Italy","woeid":"12513798","tz":"Europe/Rome","type":"Airports"},{"code":"KIN","lat":"17.9305","lon":"-76.7898","name":"Norman Manley","city":"Kingston","state":"Kingston St John","country":"Jamaica","woeid":"12514045","tz":"America/Jamaica","type":"Airports"},{"code":"ADJ","lat":"31.973","lon":"35.9822","name":"Al Matar Airport","city":"Amman","state":"'Amman","country":"Jordan","woeid":"23388321","tz":"Asia/Amman","type":"Airports"},{"code":"AKJ","lat":"43.665","lon":"142.453","name":"Asahikawa Airport","city":"Asahikawa-shi","state":"Hokkaido Prefecture","country":"Japan","woeid":"28360516","tz":"Asia/Tokyo","type":"Airports"},{"code":"AKX","lat":"50.2362","lon":"57.2115","name":"Aktyubinsk Airport","city":"Aqtobe","state":"Aqtobe","country":"Kazakhstan","woeid":"12514256","tz":"Asia/Aqtobe","type":"Airports"},{"code":"ASV","lat":"-2.63333","lon":"37.25","name":"Amboseli","city":"Amboseli","state":"Rift Valley","country":"Kenya","woeid":"1528663","tz":"Africa/Nairobi","type":"Airports"},{"code":"FRU","lat":"43.0603","lon":"74.4866","name":"Vasilyevka Airport","city":"Bishkek","state":"Chuy","country":"Kyrgyzstan","woeid":"12514125","tz":"Asia/Bishkek","type":"Airports"},{"code":"PAI","lat":"12.85","lon":"102.583","name":"Pailin Airport","city":"Pailin","state":"Pailin","country":"Cambodia","woeid":"12523199","tz":"Asia/Phnom_Penh","type":"Airports"},{"code":"CJJ","lat":"36.7131","lon":"127.509","name":"Cheongju International Airport","city":"Naesu-Eup","state":"Chungcheongbuk-Do","country":"South Korea","woeid":"12514203","tz":"Asia/Seoul","type":"Military Airport"},{"code":"KWI","lat":"29.2442","lon":"47.9748","name":"Kuwait International Airport","city":"Kuwait City","state":"Al Farwaniyah","country":"Kuwait","woeid":"23388328","tz":"Asia/Kuwait","type":"Airports"},{"code":"LPQ","lat":"19.8958","lon":"102.164","name":"Louangphrabang Airport","city":"Louangphrabang","state":"Louangphabang","country":"Laos","woeid":"12514546","tz":"Asia/Vientiane","type":"Airports"},{"code":"BEY","lat":"33.825","lon":"35.4925","name":"Beirut International Airport","city":"Beirut","state":"Jabal Lubnan","country":"Lebanon","woeid":"23388329","tz":"Asia/Beirut","type":"Airports"},{"code":"MLW","lat":"6.2897","lon":"-10.7581","name":"Monrovia Spriggs Payne Airport","city":"Monrovia","state":"Montserrado","country":"Liberia","woeid":"12514602","tz":"Africa/Monrovia","type":"Airports"},{"code":"AKF","lat":"24.1819","lon":"23.3189","name":"Kufra Airport","city":"Kufrah","state":"Al Kufrah","country":"Libya","woeid":"12514656","tz":"Africa/Tripoli","type":"Airports"},{"code":"CMB","lat":"7.1806","lon":"79.8856","name":"Katunayake International Airport","city":"Gampaha","state":"Western","country":"Sri Lanka","woeid":"12511941","tz":"Asia/Colombo","type":"Airports"},{"code":"MSU","lat":"-29.4581","lon":"27.5556","name":"Maseru Moshoeshoe Airport","city":"Maseru","state":"Maseru","country":"Lesotho","woeid":"12514633","tz":"Africa/Maseru","type":"Airports"},{"code":"KUN","lat":"54.9863","lon":"24.0512","name":"Karmilava Airport","city":"Kovno","state":"Kauno apskritis","country":"Lithuania","woeid":"12514587","tz":"Europe/Vilnius","type":"Airports"},{"code":"LUX","lat":"49.6269","lon":"6.20685","name":"Luxembourg Airport","city":"Sandweiler","state":"Luxemburg","country":"Luxembourg","woeid":"12514635","tz":"Europe/Luxembourg","type":"Airports"},{"code":"LPX","lat":"56.501","lon":"21.0897","name":"Liepaja East Airport","city":"Liepaya","state":"Liepajas Rajons","country":"Latvia","woeid":"12514573","tz":"Europe/Riga","type":"Other Airport"},{"code":"AGA","lat":"30.3833","lon":"-9.55","name":"Almassira Airport","city":"Agadir","state":"Agadir","country":"Morocco","woeid":"12523043","tz":"Africa/Casablanca","type":"Airports"},{"code":"KIV","lat":"46.9296","lon":"28.9389","name":"Kishinev Southeast Airport","city":"Chisinau","state":"Chisinau","country":"Moldova","woeid":"12514720","tz":"Europe/Chisinau","type":"Airports"},{"code":"AMY","lat":"38.4819","lon":"-100.608","name":"Ambatomainty","city":"Ambatomainty","state":"Fianarantsoa","country":"Madagascar","woeid":"1489538","tz":"Indian/Antananarivo","type":"Airports"},{"code":"ACA","lat":"16.7561","lon":"-99.7536","name":"General Juan N Alvarez International Airport","city":"Acapulco","state":"Guerrero","country":"Mexico","woeid":"12514882","tz":"America/Mexico_City","type":"Airports"},{"code":"OHD","lat":"41.1806","lon":"20.7431","name":"Ohrid Airport","city":"Ohrid","state":"Debarca","country":"Macedonia","woeid":"12514771","tz":"Europe/Skopje","type":"Airports"},{"code":"BKO","lat":"12.5361","lon":"-7.9486","name":"Bamako Senou Airport","city":"Kalaban","state":"Bamako","country":"Mali","woeid":"12514773","tz":"Africa/Bamako","type":"Airports"},{"code":"AKY","lat":"20.1303","lon":"92.8803","name":"Sittwe Airport","city":"Sittwe","state":"Rakhine State","country":"Myanmar","woeid":"12510936","tz":"Asia/Rangoon","type":"Airports"},{"code":"TGD","lat":"42.3675","lon":"19.275","name":"Titograd Airport","city":"Podgorica","state":"Montenegro","country":"Montenegro","woeid":"12517592","tz":"Europe/Podgorica","type":"Airports"},{"code":"BYN","lat":"62.0526","lon":"17.1936","name":"","city":"Bayankhongor","state":"Bayanhongor","country":"Mongolia","woeid":"2265314","tz":"Asia/Ulaanbaatar","type":"Airports"},{"code":"APL","lat":"-15.1","lon":"39.2814","name":"Nampula Airport","city":"Nampula","state":"Nampula","country":"Mozambique","woeid":"12515027","tz":"Africa/Maputo","type":"Airports"},{"code":"ATR","lat":"20.5067","lon":"-13.0436","name":"Atar Airport","city":"Atar","state":"Adrar","country":"Mauritania","woeid":"12514800","tz":"Africa/Nouakchott","type":"Airports"},{"code":"BLZ","lat":"-15.6764","lon":"34.9714","name":"Chileka International Airport","city":"Lunzu","state":"Blantyre","country":"Malawi","woeid":"12514765","tz":"Africa/Blantyre","type":"Airports"},{"code":"AOR","lat":"6.1947","lon":"100.404","name":"Sultan Abdul Halim Airport","city":"Kepala Batas","state":"Kedah","country":"Malaysia","woeid":"12515009","tz":"Asia/Kuala_Lumpur","type":"Airports"},{"code":"ERS","lat":"-22.6125","lon":"17.0819","name":"Eros Airport","city":"Windhoek","state":"Khomas","country":"Namibia","woeid":"12522975","tz":"Africa/Windhoek","type":"Airports"},{"code":"BMY","lat":"-19.75","lon":"163.667","name":"Belep Island","city":"Belep Island","state":"Nord","country":"New Caledonia","woeid":"1049677","tz":"Pacific/Noumea","type":"Airports"},{"code":"NIM","lat":"13.4817","lon":"2.1703","name":"Niamey Airport","city":"Niamey","state":"Niamey","country":"Niger","woeid":"12515047","tz":"Africa/Niamey","type":"Airports"},{"code":"ABV","lat":"9.0056","lon":"7.2661","name":"Abuja International Airport","city":"Gwagwa","state":"Abuja Capital Territory","country":"Nigeria","woeid":"12515056","tz":"Africa/Lagos","type":"Airports"},{"code":"MGA","lat":"12.1411","lon":"-86.1686","name":"Augusto Cesar Sandino International Airport","city":"Tipitapa","state":"Managua","country":"Nicaragua","woeid":"12515143","tz":"America/Managua","type":"Airports"},{"code":"AMS","lat":"52.3122","lon":"4.77511","name":"Schiphol Airport","city":"Schiphol Zuid","state":"North Holland","country":"Netherlands","woeid":"22386730","tz":"Europe/Amsterdam","type":"Airports"},{"code":"AES","lat":"62.5607","lon":"6.11129","name":"Vigra Airport","city":"Vigra","state":"More og Romsdal","country":"Norway","woeid":"12515129","tz":"Europe/Oslo","type":"Airports"},{"code":"BDP","lat":"26.5667","lon":"88.0833","name":"Bhadrapur","city":"Bhadrapur","state":"West Bengal","country":"Nepal","woeid":"2269155","tz":"Asia/Kolkata","type":"Airports"},{"code":"AKL","lat":"-37.0085","lon":"174.782","name":"Auckland International Airport","city":"Manukau City","state":"Auckland","country":"New Zealand","woeid":"12515151","tz":"Pacific/Auckland","type":"Airports"},{"code":"KHS","lat":"26.1733","lon":"56.2403","name":"Khasab Airport","city":"Khasab","state":"Musandam","country":"Oman","woeid":"12514809","tz":"Asia/Muscat","type":"Airports"},{"code":"BHV","lat":"29.3444","lon":"71.7125","name":"Bahawalpur Airport","city":"Bahawalpur","state":"Punjab","country":"Pakistan","woeid":"12515225","tz":"Asia/Karachi","type":"Airports"},{"code":"BOC","lat":"9.34","lon":"-82.2514","name":"Bocas del Toro Airport","city":"Bocas del Toro","state":"Bocas del Toro","country":"Panama","woeid":"12515413","tz":"America/Panama","type":"Airports"},{"code":"AQP","lat":"-16.3372","lon":"-71.5692","name":"Rodriguez Ballon Airport","city":"Arequipa","state":"Arequipa","country":"Peru","woeid":"12515218","tz":"America/Lima","type":"Airports"},{"code":"BAG","lat":"16.3764","lon":"120.619","name":"Baguio Airport","city":"Baguio City","state":"Cordillera Administrative Region","country":"Philippines","woeid":"12515596","tz":"Asia/Manila","type":"Airports"},{"code":"AGL","lat":"-9.33333","lon":"149.15","name":"Wanigela","city":"Wanigela","state":"Northern","country":"Papua New Guinea","woeid":"1061994","tz":"Pacific/Port_Moresby","type":"Airports"},{"code":"BZG","lat":"53.0918","lon":"17.9821","name":"Szwederowo Airport","city":"BiaÅ‚e BÅ‚ota","state":"Kujawsko-Pomorskie","country":"Poland","woeid":"12523956","tz":"Europe/Warsaw","type":"Airports"},{"code":"FNJ","lat":"39.1437","lon":"125.695","name":"Sunan Airport","city":"Sunan","state":"P'yongan-namdo","country":"North Korea","woeid":"12514175","tz":"Asia/Pyongyang","type":"Airports"},{"code":"CVU","lat":"39.7","lon":"-31.1","name":"Corvo Island Airport","city":"Corvo","state":"Azores","country":"Portugal","woeid":"12523960","tz":"Atlantic/Azores","type":"Airports"},{"code":"AGT","lat":"-25.5266","lon":"-54.6226","name":"Alejo Garcia Airport","city":"Presidente Franco","state":"Alto ParanÃ¡","country":"Paraguay","woeid":"12523540","tz":"America/Asuncion","type":"Airports"},{"code":"DOH","lat":"25.2592","lon":"51.5658","name":"Doha International Airport","city":"Doha","state":"Doha","country":"Qatar","woeid":"12515487","tz":"Asia/Qatar","type":"Airports"},{"code":"ARW","lat":"46.1805","lon":"21.2609","name":"Ceala Airport","city":"Arad","state":"Arad","country":"Romania","woeid":"12515518","tz":"Europe/Bucharest","type":"Airports"},{"code":"AAQ","lat":"44.9","lon":"37.3167","name":"Olkhovka Airport","city":"Novorossiysk","state":"Krasnodarskiy Kray","country":"Russia","woeid":"12516605","tz":"Europe/Moscow","type":"Airports"},{"code":"KGL","lat":"-1.9678","lon":"30.14","name":"Kigali Airport","city":"Kigali","state":"Kigali Province","country":"Rwanda","woeid":"12517316","tz":"Africa/Kigali","type":"Airports"},{"code":"VIL","lat":"23.7333","lon":"-15.9167","name":"Dakhla Airport","city":"Ad Dakhla","state":"Oued Ed-Dahab","country":"Western Sahara","woeid":"12514785","tz":"Africa/El_Aaiun","type":"Airports"},{"code":"ABT","lat":"20.2961","lon":"41.6342","name":"Al Baha Airport","city":"Al Aqiq","state":"Al Baha","country":"Saudi Arabia","woeid":"12517321","tz":"Asia/Riyadh","type":"Airports"},{"code":"ATB","lat":"17.7","lon":"33.9833","name":"Atbara","city":"Atbara","state":"Nahr an Nil","country":"Sudan","woeid":"1431005","tz":"Africa/Khartoum","type":"Airports"},{"code":"CSK","lat":"12.3953","lon":"-16.7514","name":"Cap Skiring Airport","city":"Cap Skirring","state":"","country":"Senegal","woeid":"12517504","tz":"Africa/Dakar","type":"Airports"},{"code":"AFT","lat":"-9.18333","lon":"160.95","name":"Afutara Aerodrome","city":"Afutara","state":"Malaita","country":"Solomon Islands","woeid":"1020505","tz":"Pacific/Guadalcanal","type":"Airports"},{"code":"FNA","lat":"8.6181","lon":"-13.1994","name":"Freetown Lungi Airport","city":"Freetown","state":"Northern","country":"Sierra Leone","woeid":"12517517","tz":"Africa/Freetown","type":"Airports"},{"code":"SAL","lat":"13.44","lon":"-89.0558","name":"El Salvador International Airport","city":"San Luis","state":"La Paz","country":"El Salvador","woeid":"12512751","tz":"America/El_Salvador","type":"Airports"},{"code":"BBO","lat":"10.3917","lon":"44.95","name":"Berbera Airport","city":"Berbera","state":"Woqooyi Galbeed","country":"Somalia","woeid":"12517527","tz":"Africa/Mogadishu","type":"Airports"},{"code":"PBM","lat":"5.45","lon":"-55.1867","name":"Zandery Airport","city":"Sabakoe","state":"Para","country":"Suriname","woeid":"12515136","tz":"America/Paramaribo","type":"Airports"},{"code":"BTS","lat":"48.2063","lon":"17.2055","name":"Bratislava Airport","city":"Bratislava","state":"Bratislavsky","country":"Slovakia","woeid":"12514608","tz":"Europe/Bratislava","type":"Airports"},{"code":"LJU","lat":"46.2247","lon":"14.4608","name":"Ljubljana Airport","city":"Ljubljana","state":"Kranj","country":"Slovenia","woeid":"12517513","tz":"Europe/Belgrade","type":"Airports"},{"code":"AGH","lat":"56.2873","lon":"12.8675","name":"Angelholm Airport","city":"Angelholm","state":"Skane","country":"Sweden","woeid":"23319131","tz":"Europe/Stockholm","type":"Airports"},{"code":"MTS","lat":"-26.5204","lon":"31.3146","name":"Matsapa International Airport","city":"Manzini","state":"Manzini","country":"Swaziland","woeid":"12522997","tz":"Africa/Mbabane","type":"Airports"},{"code":"ALP","lat":"36.1808","lon":"37.2267","name":"Aleppo International Airport","city":"Djibrine","state":"H'alab","country":"Syria","woeid":"12517695","tz":"Asia/Damascus","type":"Airports"},{"code":"AEH","lat":"13.8486","lon":"20.8472","name":"Abeche Airport","city":"AbÃ©chÃ©","state":"Ouaddai","country":"Chad","woeid":"12511930","tz":"Africa/Ndjamena","type":"Airports"},{"code":"LFW","lat":"6.1625","lon":"1.255","name":"Lome Tokoin Airport","city":"Lome","state":"Lome","country":"Togo","woeid":"12517850","tz":"Africa/Lome","type":"Airports"},{"code":"BFV","lat":"15.2295","lon":"103.253","name":"Buri Ram","city":"Buri Ram","state":"Buriram","country":"Thailand","woeid":"28341176","tz":"Asia/Bangkok","type":"Airports"},{"code":"DYU","lat":"38.5785","lon":"68.7773","name":"Tajikistan","city":"Dushanbe","state":"Karategin","country":"Tajikistan","woeid":"23424961","tz":"Asia/Dushanbe","type":"Airports"},{"code":"ASB","lat":"37.9842","lon":"58.3294","name":"Ashkhabad Northwest Airport","city":"Ashgabat","state":"Ashkhabad","country":"Turkmenistan","woeid":"12517960","tz":"Asia/Ashgabat","type":"Airports"},{"code":"POS","lat":"10.5936","lon":"-61.3386","name":"Piarco Airport","city":"Trinidad","state":"Port of Spain","country":"Trinidad and Tobago","woeid":"12517744","tz":"America/Port_of_Spain","type":"Airports"},{"code":"DJE","lat":"33.8764","lon":"10.7792","name":"Zarzis Airport","city":"Hawmat as Suq","state":"Madanin","country":"Tunisia","woeid":"12517864","tz":"Africa/Tunis","type":"Airports"},{"code":"ADA","lat":"36.9811","lon":"35.2803","name":"Sakirpasa Airport","city":"Adana","state":"Adana","country":"Turkey","woeid":"12517911","tz":"Europe/Istanbul","type":"Airports"},{"code":"CYI","lat":"23.4542","lon":"120.404","name":"Chaiyi Airport","city":"Chiayi City","state":"Taiwan Province","country":"Taiwan","woeid":"12517927","tz":"Asia/Taipei","type":"Airports"},{"code":"EBB","lat":"0.0417","lon":"32.4381","name":"Entebbe International Airport","city":"Entebbe","state":"Wakiso","country":"Uganda","woeid":"12518024","tz":"Africa/Kampala","type":"Airports"},{"code":"CWC","lat":"48.2526","lon":"25.976","name":"Chernovtsy Airport","city":"Chernivtsi","state":"ChernivetsÂ´ka OblastÂ´","country":"Ukraine","woeid":"12518229","tz":"Europe/Kiev","type":"Airports"},{"code":"MVD","lat":"-34.8291","lon":"-56.0323","name":"Carrasco International Airport","city":"Montevideo","state":"Montevideo","country":"Uruguay","woeid":"12522559","tz":"America/Montevideo","type":"Airports"},{"code":"AFS","lat":"41.6136","lon":"64.2331","name":"Zarafshan Airport","city":"Zarafshan","state":"Nawoiy","country":"Uzbekistan","woeid":"2272667","tz":"Asia/Samarkand","type":"Airports"},{"code":"AGV","lat":"9.55194","lon":"-69.2367","name":"Acarigua","city":"Acarigua","state":"Portuguesa","country":"Venezuela","woeid":"12522827","tz":"America/Caracas","type":"Airports"},{"code":"BMV","lat":"12.6667","lon":"108.05","name":"Ban Me Thaut","city":"Banmethuot","state":"Dak Lak","country":"Vietnam","woeid":"1233132","tz":"Asia/Ho_Chi_Minh","type":"Airports"},{"code":"AUY","lat":"-20.1909","lon":"169.825","name":"Vanuatu","city":"Aneityum","state":"Tafea","country":"Vanuatu","woeid":"23424907","tz":"Pacific/Efate","type":"Airports"},{"code":"AAY","lat":"16.1947","lon":"52.1694","name":"Al Gaidah Airport","city":"Al Ghaydah","state":"Hadramawt","country":"Yemen","woeid":"12523000","tz":"Asia/Aden","type":"Airports"},{"code":"AAM","lat":"-24.8","lon":"31.5333","name":"Mala Mala","city":"Mala Mala","state":"","country":"South Africa","woeid":"55921381","tz":"Africa/Johannesburg","type":"Airports"},{"code":"CIP","lat":"-11.1358","lon":"-38.5205","name":"","city":"Chipata","state":"Eastern","country":"Zambia","woeid":"1564855","tz":"Africa/Lusaka","type":"Airports"},{"code":"BUQ","lat":"-20.0169","lon":"28.6181","name":"Bulawayo Airport","city":"Bulawayo","state":"Matabeleland North","country":"Zimbabwe","woeid":"12523021","tz":"Africa/Harare","type":"Airports"}]